{
"type": "FeatureCollection",
"crs": { "type": "name", "properties": { "name": "urn:ogc:def:crs:OGC:1.3:CRS84" } },

"features": [
{ "type": "Feature", "properties": { "OBJECTID": 1, "Facility_T": "Playground", "Facility_N": "Willawaw Park", "Owner": "Unknown", "Comments": null }, "geometry": { "type": "Point", "coordinates": [ -149.797809375991648, 61.208927467097034 ] } },
{ "type": "Feature", "properties": { "OBJECTID": 2, "Facility_T": "Playground", "Facility_N": "Campbell Park", "Owner": "Unknown", "Comments": null }, "geometry": { "type": "Point", "coordinates": [ -149.836821272053129, 61.177592702737492 ] } },
{ "type": "Feature", "properties": { "OBJECTID": 3, "Facility_T": "Playground", "Facility_N": "Woodland Park", "Owner": "Unknown", "Comments": null }, "geometry": { "type": "Point", "coordinates": [ -149.930765414870933, 61.188324924891212 ] } },
{ "type": "Feature", "properties": { "OBJECTID": 4, "Facility_T": "Playground", "Facility_N": "Suzan Nightingale McKay Park", "Owner": "Unknown", "Comments": null }, "geometry": { "type": "Point", "coordinates": [ -149.883392711093734, 61.2304857871314 ] } },
{ "type": "Feature", "properties": { "OBJECTID": 5, "Facility_T": "Playground", "Facility_N": "Red Bridge Park", "Owner": "Unknown", "Comments": null }, "geometry": { "type": "Point", "coordinates": [ -149.924476178744072, 61.180348840737032 ] } },
{ "type": "Feature", "properties": { "OBJECTID": 6, "Facility_T": "Playground", "Facility_N": "David Green Memorial Park", "Owner": "Unknown", "Comments": null }, "geometry": { "type": "Point", "coordinates": [ -149.848914431590259, 61.187489871075549 ] } },
{ "type": "Feature", "properties": { "OBJECTID": 7, "Facility_T": "Playground", "Facility_N": "Frontierland Park", "Owner": "Unknown", "Comments": null }, "geometry": { "type": "Point", "coordinates": [ -149.892365120446613, 61.212191690451633 ] } },
{ "type": "Feature", "properties": { "OBJECTID": 8, "Facility_T": "Playground", "Facility_N": "Barbara Street Park", "Owner": "Unknown", "Comments": null }, "geometry": { "type": "Point", "coordinates": [ -149.929981061304375, 61.191831525107325 ] } },
{ "type": "Feature", "properties": { "OBJECTID": 9, "Facility_T": "Playground", "Facility_N": "Ray E Storck Homestead Park", "Owner": "Unknown", "Comments": null }, "geometry": { "type": "Point", "coordinates": [ -149.748203682567407, 61.088336212705329 ] } },
{ "type": "Feature", "properties": { "OBJECTID": 10, "Facility_T": "Playground", "Facility_N": "Windsong Park", "Owner": "Unknown", "Comments": null }, "geometry": { "type": "Point", "coordinates": [ -149.725982103485677, 61.207258756020131 ] } },
{ "type": "Feature", "properties": { "OBJECTID": 11, "Facility_T": "Playground", "Facility_N": "Whisper Faith Kovach Memorial Park", "Owner": "Unknown", "Comments": null }, "geometry": { "type": "Point", "coordinates": [ -149.846372880789744, 61.151023241487771 ] } },
{ "type": "Feature", "properties": { "OBJECTID": 12, "Facility_T": "Playground", "Facility_N": "Springer Park", "Owner": "Unknown", "Comments": null }, "geometry": { "type": "Point", "coordinates": [ -149.896065072716027, 61.185825406200905 ] } },
{ "type": "Feature", "properties": { "OBJECTID": 13, "Facility_T": "Playground", "Facility_N": "Standish Park", "Owner": "Unknown", "Comments": null }, "geometry": { "type": "Point", "coordinates": [ -149.725601035411586, 61.217970787804944 ] } },
{ "type": "Feature", "properties": { "OBJECTID": 14, "Facility_T": "Playground", "Facility_N": "Ruth Arcand Park", "Owner": "Unknown", "Comments": null }, "geometry": { "type": "Point", "coordinates": [ -149.812565077595366, 61.135447438341664 ] } },
{ "type": "Feature", "properties": { "OBJECTID": 15, "Facility_T": "Playground", "Facility_N": "Karluk Park", "Owner": "Unknown", "Comments": null }, "geometry": { "type": "Point", "coordinates": [ -149.860797749443179, 61.215012672231737 ] } },
{ "type": "Feature", "properties": { "OBJECTID": 16, "Facility_T": "Playground", "Facility_N": "Charles W Smith Memorial Park", "Owner": "Unknown", "Comments": null }, "geometry": { "type": "Point", "coordinates": [ -149.881670025694689, 61.20275581110139 ] } },
{ "type": "Feature", "properties": { "OBJECTID": 17, "Facility_T": "Playground", "Facility_N": "Cuddy Family Mid-Town Park", "Owner": "Unknown", "Comments": null }, "geometry": { "type": "Point", "coordinates": [ -149.880911754863945, 61.185468679174029 ] } },
{ "type": "Feature", "properties": { "OBJECTID": 18, "Facility_T": "Playground", "Facility_N": "Bancroft Park", "Owner": "Unknown", "Comments": null }, "geometry": { "type": "Point", "coordinates": [ -149.855236709006562, 61.174313413591292 ] } },
{ "type": "Feature", "properties": { "OBJECTID": 19, "Facility_T": "Playground", "Facility_N": "Kincaid Park", "Owner": "Unknown", "Comments": null }, "geometry": { "type": "Point", "coordinates": [ -150.03969759743768, 61.152474102423817 ] } },
{ "type": "Feature", "properties": { "OBJECTID": 20, "Facility_T": "Playground", "Facility_N": "Nulbay Park", "Owner": "Unknown", "Comments": null }, "geometry": { "type": "Point", "coordinates": [ -149.910466561658069, 61.215964265929536 ] } },
{ "type": "Feature", "properties": { "OBJECTID": 21, "Facility_T": "Playground", "Facility_N": "Turpin Park", "Owner": "Unknown", "Comments": null }, "geometry": { "type": "Point", "coordinates": [ -149.742790182850513, 61.221866841319745 ] } },
{ "type": "Feature", "properties": { "OBJECTID": 22, "Facility_T": "Playground", "Facility_N": "Spenard Beach Park", "Owner": "Unknown", "Comments": null }, "geometry": { "type": "Point", "coordinates": [ -149.947212987276856, 61.18005683486524 ] } },
{ "type": "Feature", "properties": { "OBJECTID": 23, "Facility_T": "Playground", "Facility_N": "Alderwood Park", "Owner": "Unknown", "Comments": null }, "geometry": { "type": "Point", "coordinates": [ -149.867741380886031, 61.228011914412896 ] } },
{ "type": "Feature", "properties": { "OBJECTID": 24, "Facility_T": "Playground", "Facility_N": "San Antonio Park", "Owner": "Unknown", "Comments": null }, "geometry": { "type": "Point", "coordinates": [ -149.795765559395392, 61.212682469545825 ] } },
{ "type": "Feature", "properties": { "OBJECTID": 25, "Facility_T": "Playground", "Facility_N": "Russian Jack Springs Park", "Owner": "Unknown", "Comments": null }, "geometry": { "type": "Point", "coordinates": [ -149.790503004023151, 61.21467216160454 ] } },
{ "type": "Feature", "properties": { "OBJECTID": 26, "Facility_T": "Playground", "Facility_N": "Nunaka Valley Park North", "Owner": "Unknown", "Comments": null }, "geometry": { "type": "Point", "coordinates": [ -149.764818813245853, 61.208764693933759 ] } },
{ "type": "Feature", "properties": { "OBJECTID": 27, "Facility_T": "Playground", "Facility_N": "Scenic Park", "Owner": "Unknown", "Comments": null }, "geometry": { "type": "Point", "coordinates": [ -149.746746459568584, 61.187356789155984 ] } },
{ "type": "Feature", "properties": { "OBJECTID": 28, "Facility_T": "Playground", "Facility_N": "Didlika Park", "Owner": "Unknown", "Comments": null }, "geometry": { "type": "Point", "coordinates": [ -149.950840709660923, 61.197820826633716 ] } },
{ "type": "Feature", "properties": { "OBJECTID": 29, "Facility_T": "Playground", "Facility_N": "Kedaya Park", "Owner": "Unknown", "Comments": null }, "geometry": { "type": "Point", "coordinates": [ -149.910837420694691, 61.207159642310124 ] } },
{ "type": "Feature", "properties": { "OBJECTID": 30, "Facility_T": "Playground", "Facility_N": "Chugach Foothills Park", "Owner": "Unknown", "Comments": null }, "geometry": { "type": "Point", "coordinates": [ -149.729102366042838, 61.185692896033238 ] } },
{ "type": "Feature", "properties": { "OBJECTID": 31, "Facility_T": "Playground", "Facility_N": "Valley of the Moon Park", "Owner": "Unknown", "Comments": null }, "geometry": { "type": "Point", "coordinates": [ -149.888896488747122, 61.202453808515003 ] } },
{ "type": "Feature", "properties": { "OBJECTID": 32, "Facility_T": "Playground", "Facility_N": "Lloyd Steele Park", "Owner": "Unknown", "Comments": null }, "geometry": { "type": "Point", "coordinates": [ -149.952283199424187, 61.192548965394721 ] } },
{ "type": "Feature", "properties": { "OBJECTID": 33, "Facility_T": "Playground", "Facility_N": "Dave Rose Park", "Owner": "Unknown", "Comments": null }, "geometry": { "type": "Point", "coordinates": [ -149.796243742121476, 61.220801105643517 ] } },
{ "type": "Feature", "properties": { "OBJECTID": 34, "Facility_T": "Playground", "Facility_N": "Kiwanis Fish Creek Park", "Owner": "Unknown", "Comments": null }, "geometry": { "type": "Point", "coordinates": [ -149.934805193969822, 61.187514054110892 ] } },
{ "type": "Feature", "properties": { "OBJECTID": 35, "Facility_T": "Playground", "Facility_N": "Goose Lake Park", "Owner": "Unknown", "Comments": null }, "geometry": { "type": "Point", "coordinates": [ -149.820866600535169, 61.196397310722496 ] } },
{ "type": "Feature", "properties": { "OBJECTID": 36, "Facility_T": "Playground", "Facility_N": "Johns Park", "Owner": "Unknown", "Comments": null }, "geometry": { "type": "Point", "coordinates": [ -149.889190943820893, 61.106752004769824 ] } },
{ "type": "Feature", "properties": { "OBJECTID": 37, "Facility_T": "Playground", "Facility_N": "Cheney Lake Park", "Owner": "Unknown", "Comments": null }, "geometry": { "type": "Point", "coordinates": [ -149.762796231097411, 61.199943745864978 ] } },
{ "type": "Feature", "properties": { "OBJECTID": 38, "Facility_T": "Playground", "Facility_N": "Lyn Ary Park", "Owner": "Unknown", "Comments": null }, "geometry": { "type": "Point", "coordinates": [ -149.945864632612881, 61.201935151567625 ] } },
{ "type": "Feature", "properties": { "OBJECTID": 39, "Facility_T": "Playground", "Facility_N": "Sunset Park", "Owner": "Unknown", "Comments": null }, "geometry": { "type": "Point", "coordinates": [ -149.873686777108986, 61.228597656592392 ] } },
{ "type": "Feature", "properties": { "OBJECTID": 40, "Facility_T": "Playground", "Facility_N": "Oceanview Park", "Owner": "Unknown", "Comments": null }, "geometry": { "type": "Point", "coordinates": [ -149.858314174536645, 61.098697446317772 ] } },
{ "type": "Feature", "properties": { "OBJECTID": 41, "Facility_T": "Playground", "Facility_N": "Castle Heights Park", "Owner": "Unknown", "Comments": null }, "geometry": { "type": "Point", "coordinates": [ -149.790545979337054, 61.184220802194126 ] } },
{ "type": "Feature", "properties": { "OBJECTID": 42, "Facility_T": "Playground", "Facility_N": "Little Dipper Park", "Owner": "Unknown", "Comments": null }, "geometry": { "type": "Point", "coordinates": [ -149.719733509307787, 61.19170616675747 ] } },
{ "type": "Feature", "properties": { "OBJECTID": 43, "Facility_T": "Playground", "Facility_N": "Bob and Arlene Cross Park", "Owner": "Unknown", "Comments": null }, "geometry": { "type": "Point", "coordinates": [ -149.775436059231993, 61.115542516115404 ] } },
{ "type": "Feature", "properties": { "OBJECTID": 44, "Facility_T": "Playground", "Facility_N": "Shady Birch Park", "Owner": "Unknown", "Comments": null }, "geometry": { "type": "Point", "coordinates": [ -149.943364905037299, 61.146964437520182 ] } },
{ "type": "Feature", "properties": { "OBJECTID": 45, "Facility_T": "Playground", "Facility_N": "Taku Lake Park", "Owner": "Unknown", "Comments": null }, "geometry": { "type": "Point", "coordinates": [ -149.889730694676587, 61.147707726409202 ] } },
{ "type": "Feature", "properties": { "OBJECTID": 46, "Facility_T": "Playground", "Facility_N": "Fairview Park", "Owner": "MOA", "Comments": null }, "geometry": { "type": "Point", "coordinates": [ -149.860241892807778, 61.210174021708539 ] } },
{ "type": "Feature", "properties": { "OBJECTID": 47, "Facility_T": "Playground", "Facility_N": "Cope Street Park", "Owner": "MOA", "Comments": null }, "geometry": { "type": "Point", "coordinates": [ -149.903152412921287, 61.188902944000517 ] } },
{ "type": "Feature", "properties": { "OBJECTID": 48, "Facility_T": "Playground", "Facility_N": "Pioneer Park", "Owner": "MOA", "Comments": null }, "geometry": { "type": "Point", "coordinates": [ -149.908528901164658, 61.115092014714421 ] } },
{ "type": "Feature", "properties": { "OBJECTID": 49, "Facility_T": "Playground", "Facility_N": "Sisterhood Park", "Owner": "MOA", "Comments": null }, "geometry": { "type": "Point", "coordinates": [ -149.923236068915685, 61.176465843353249 ] } },
{ "type": "Feature", "properties": { "OBJECTID": 50, "Facility_T": "Playground", "Facility_N": "Wilson Street Park", "Owner": "MOA", "Comments": null }, "geometry": { "type": "Point", "coordinates": [ -149.905668369689323, 61.184765171575172 ] } },
{ "type": "Feature", "properties": { "OBJECTID": 51, "Facility_T": "Playground", "Facility_N": "Tikishla Park", "Owner": "MOA", "Comments": null }, "geometry": { "type": "Point", "coordinates": [ -149.83228707035866, 61.195800539422919 ] } },
{ "type": "Feature", "properties": { "OBJECTID": 52, "Facility_T": "Playground", "Facility_N": "Arctic\/Benson Park", "Owner": "MOA", "Comments": null }, "geometry": { "type": "Point", "coordinates": [ -149.896727671588025, 61.192291087654567 ] } },
{ "type": "Feature", "properties": { "OBJECTID": 54, "Facility_T": "Playground", "Facility_N": "Carlson Park", "Owner": "MOA", "Comments": null }, "geometry": { "type": "Point", "coordinates": [ -149.841156010706612, 61.191467518930018 ] } },
{ "type": "Feature", "properties": { "OBJECTID": 55, "Facility_T": "Playground", "Facility_N": "Nunaka Valley Park South", "Owner": "MOA", "Comments": null }, "geometry": { "type": "Point", "coordinates": [ -149.769495109744071, 61.203031447782983 ] } },
{ "type": "Feature", "properties": { "OBJECTID": 56, "Facility_T": "Playground", "Facility_N": "Pop Carr Park", "Owner": "MOA", "Comments": null }, "geometry": { "type": "Point", "coordinates": [ -149.899962096806433, 61.179694508656894 ] } },
{ "type": "Feature", "properties": { "OBJECTID": 57, "Facility_T": "Playground", "Facility_N": "Jade Street Park", "Owner": "MOA", "Comments": null }, "geometry": { "type": "Point", "coordinates": [ -149.97246360089278, 61.138955255473441 ] } },
{ "type": "Feature", "properties": { "OBJECTID": 58, "Facility_T": "Playground", "Facility_N": "Jewel Lake Park", "Owner": "MOA", "Comments": null }, "geometry": { "type": "Point", "coordinates": [ -149.960847832966664, 61.140972718517915 ] } },
{ "type": "Feature", "properties": { "OBJECTID": 59, "Facility_T": "Playground", "Facility_N": "Duldida Park", "Owner": "MOA", "Comments": null }, "geometry": { "type": "Point", "coordinates": [ -149.800380209342705, 61.227411654970517 ] } },
{ "type": "Feature", "properties": { "OBJECTID": 60, "Facility_T": "Playground", "Facility_N": "Old Hermit Park", "Owner": "MOA", "Comments": null }, "geometry": { "type": "Point", "coordinates": [ -149.924817194095596, 61.193203718182211 ] } },
{ "type": "Feature", "properties": { "OBJECTID": 61, "Facility_T": "Playground", "Facility_N": "Winchester Park", "Owner": "MOA", "Comments": null }, "geometry": { "type": "Point", "coordinates": [ -149.814644223612561, 61.144998096579492 ] } },
{ "type": "Feature", "properties": { "OBJECTID": 62, "Facility_T": "Playground", "Facility_N": "Balto Seppala Park", "Owner": "MOA", "Comments": null }, "geometry": { "type": "Point", "coordinates": [ -149.943970034905419, 61.190295711758182 ] } },
{ "type": "Feature", "properties": { "OBJECTID": 63, "Facility_T": "Playground", "Facility_N": "Hamilton Park", "Owner": "MOA", "Comments": null }, "geometry": { "type": "Point", "coordinates": [ -149.84277253976029, 61.100012887886251 ] } },
{ "type": "Feature", "properties": { "OBJECTID": 64, "Facility_T": "Playground", "Facility_N": "Wolverine Park", "Owner": "MOA", "Comments": null }, "geometry": { "type": "Point", "coordinates": [ -149.897929366675925, 61.153480651300264 ] } },
{ "type": "Feature", "properties": { "OBJECTID": 65, "Facility_T": "Playground", "Facility_N": "Pamela Joy Lowry Memorial Park", "Owner": "MOA", "Comments": null }, "geometry": { "type": "Point", "coordinates": [ -149.926878613614235, 61.14722315851602 ] } },
{ "type": "Feature", "properties": { "OBJECTID": 66, "Facility_T": "Playground", "Facility_N": "Kanchee Park", "Owner": "MOA", "Comments": null }, "geometry": { "type": "Point", "coordinates": [ -149.803984321259804, 61.219657572979408 ] } },
{ "type": "Feature", "properties": { "OBJECTID": 67, "Facility_T": "Playground", "Facility_N": "Forsythe Park", "Owner": "MOA", "Comments": null }, "geometry": { "type": "Point", "coordinates": [ -149.770501495382888, 61.119560458525243 ] } },
{ "type": "Feature", "properties": { "OBJECTID": 68, "Facility_T": "Playground", "Facility_N": "Fairbanks Park", "Owner": "MOA", "Comments": null }, "geometry": { "type": "Point", "coordinates": [ -149.873523950391842, 61.211382029032762 ] } },
{ "type": "Feature", "properties": { "OBJECTID": 69, "Facility_T": "Playground", "Facility_N": "Elderberry Park", "Owner": "MOA", "Comments": null }, "geometry": { "type": "Point", "coordinates": [ -149.906715097395789, 61.218214157104114 ] } },
{ "type": "Feature", "properties": { "OBJECTID": 70, "Facility_T": "Playground", "Facility_N": "KFQD Park", "Owner": "MOA", "Comments": null }, "geometry": { "type": "Point", "coordinates": [ -149.937470728745438, 61.126464143864922 ] } },
{ "type": "Feature", "properties": { "OBJECTID": 71, "Facility_T": "Playground", "Facility_N": "Creekside Park", "Owner": "MOA", "Comments": null }, "geometry": { "type": "Point", "coordinates": [ -149.747549975492376, 61.216662404175871 ] } },
{ "type": "Feature", "properties": { "OBJECTID": 72, "Facility_T": "Playground", "Facility_N": "Moen Park", "Owner": "MOA", "Comments": null }, "geometry": { "type": "Point", "coordinates": [ -149.772399829980003, 61.059409821928881 ] } },
{ "type": "Feature", "properties": { "OBJECTID": 73, "Facility_T": "Playground", "Facility_N": "Centennial Park", "Owner": "MOA", "Comments": null }, "geometry": { "type": "Point", "coordinates": [ -149.730197801697813, 61.225925723847197 ] } },
{ "type": "Feature", "properties": { "OBJECTID": 74, "Facility_T": "Playground", "Facility_N": "Minnesota Park", "Owner": "MOA", "Comments": null }, "geometry": { "type": "Point", "coordinates": [ -149.91369170694793, 61.190031325124536 ] } },
{ "type": "Feature", "properties": { "OBJECTID": 75, "Facility_T": "Playground", "Facility_N": "Roosevelt Park", "Owner": "MOA", "Comments": null }, "geometry": { "type": "Point", "coordinates": [ -149.921604076057264, 61.182253889328365 ] } },
{ "type": "Feature", "properties": { "OBJECTID": 76, "Facility_T": "Golf Course", "Facility_N": "Moose Run Golf Course", "Owner": "Unknown", "Comments": null }, "geometry": { "type": "Point", "coordinates": [ -149.668014552139169, 61.231830959617803 ] } },
{ "type": "Feature", "properties": { "OBJECTID": 77, "Facility_T": "Golf Course", "Facility_N": "Anchorage Golf Course", "Owner": "Unknown", "Comments": null }, "geometry": { "type": "Point", "coordinates": [ -149.813535595575985, 61.123348322576952 ] } },
{ "type": "Feature", "properties": { "OBJECTID": 79, "Facility_T": "Ice Rink", "Facility_N": "Sullivan Arena", "Owner": "Unknown", "Comments": null }, "geometry": { "type": "Point", "coordinates": [ -149.872643406484343, 61.205451976338608 ] } },
{ "type": "Feature", "properties": { "OBJECTID": 80, "Facility_T": "Ice Rink", "Facility_N": "Dimond Ice Rink", "Owner": "Unknown", "Comments": null }, "geometry": { "type": "Point", "coordinates": [ -149.86772701309485, 61.14429021035162 ] } },
{ "type": "Feature", "properties": { "OBJECTID": 81, "Facility_T": "Ice Rink", "Facility_N": "Big Rink Skate Club", "Owner": "Unknown", "Comments": null }, "geometry": { "type": "Point", "coordinates": [ -149.846242404586377, 61.163005788206952 ] } },
{ "type": "Feature", "properties": { "OBJECTID": 82, "Facility_T": "Ice Rink", "Facility_N": "Dempsey - Anderson Ice Arena", "Owner": "Unknown", "Comments": null }, "geometry": { "type": "Point", "coordinates": [ -149.917640402241233, 61.196261601900567 ] } },
{ "type": "Feature", "properties": { "OBJECTID": 83, "Facility_T": "Ice Rink", "Facility_N": "Ben Boeke Indoor Ice Arena", "Owner": "Unknown", "Comments": null }, "geometry": { "type": "Point", "coordinates": [ -149.872988731603215, 61.204479069323661 ] } },
{ "type": "Feature", "properties": { "OBJECTID": 84, "Facility_T": "Pool", "Facility_N": "West High School", "Owner": "Unknown", "Comments": null }, "geometry": { "type": "Point", "coordinates": [ -149.918420552891234, 61.202106242760529 ] } },
{ "type": "Feature", "properties": { "OBJECTID": 85, "Facility_T": "Pool", "Facility_N": "East High School", "Owner": "Unknown", "Comments": null }, "geometry": { "type": "Point", "coordinates": [ -149.804717827951976, 61.19903182518437 ] } },
{ "type": "Feature", "properties": { "OBJECTID": 86, "Facility_T": "Pool", "Facility_N": "YMCA Anchorage Community", "Owner": "Unknown", "Comments": null }, "geometry": { "type": "Point", "coordinates": [ -149.837557995954029, 61.172275057313925 ] } },
{ "type": "Feature", "properties": { "OBJECTID": 87, "Facility_T": "Pool", "Facility_N": "Bartlett High School Pool", "Owner": "Unknown", "Comments": null }, "geometry": { "type": "Point", "coordinates": [ -149.732546413988132, 61.23248065304724 ] } },
{ "type": "Feature", "properties": { "OBJECTID": 88, "Facility_T": "Pool", "Facility_N": "Chugiak Pool", "Owner": "Unknown", "Comments": null }, "geometry": { "type": "Point", "coordinates": [ -149.536168116033139, 61.369648028294662 ] } },
{ "type": "Feature", "properties": { "OBJECTID": 89, "Facility_T": "Pool", "Facility_N": "Service High School", "Owner": "Unknown", "Comments": null }, "geometry": { "type": "Point", "coordinates": [ -149.780584663617645, 61.137689571325822 ] } },
{ "type": "Feature", "properties": { "OBJECTID": 90, "Facility_T": "Pool", "Facility_N": "Dimond High School", "Owner": "Unknown", "Comments": null }, "geometry": { "type": "Point", "coordinates": [ -149.935497712629342, 61.141217818390132 ] } },
{ "type": "Feature", "properties": { "OBJECTID": 91, "Facility_T": "Pool", "Facility_N": "Alaska Pacific University Pool", "Owner": "Unknown", "Comments": null }, "geometry": { "type": "Point", "coordinates": [ -149.805295061403086, 61.189417008408448 ] } },
{ "type": "Feature", "properties": { "OBJECTID": 92, "Facility_T": "Recreation Center", "Facility_N": "Spenard Community Recreation Center", "Owner": "Unknown", "Comments": null }, "geometry": { "type": "Point", "coordinates": [ -149.921117802609416, 61.177143105126333 ] } },
{ "type": "Feature", "properties": { "OBJECTID": 93, "Facility_T": "Recreation Center", "Facility_N": "Fairview Community Recreation Center", "Owner": "Unknown", "Comments": null }, "geometry": { "type": "Point", "coordinates": [ -149.861877092253025, 61.212718965599599 ] } },
{ "type": "Feature", "properties": { "OBJECTID": 94, "Facility_T": "Playground", "Facility_N": "Ira Walker Park", "Owner": "Unknown", "Comments": null }, "geometry": { "type": "Point", "coordinates": [ -149.771337638284137, 61.216656055514626 ] } },
{ "type": "Feature", "properties": { "OBJECTID": 95, "Facility_T": "Recreation Center", "Facility_N": "Hilltop Ski and Recreation Center", "Owner": "Management Leased", "Comments": null }, "geometry": { "type": "Point", "coordinates": [ -149.744454408327613, 61.140837170919497 ] } },
{ "type": "Feature", "properties": { "OBJECTID": 96, "Facility_T": "Recreation Center", "Facility_N": "Campbell Creek Science Center (U.S. BLM)", "Owner": "BLM", "Comments": null }, "geometry": { "type": "Point", "coordinates": [ -149.777521898280639, 61.164160514613975 ] } },
{ "type": "Feature", "properties": { "OBJECTID": 97, "Facility_T": "Picnic Shelter", "Facility_N": "Abbott Loop Community Park", "Owner": "MOA", "Comments": null }, "geometry": { "type": "Point", "coordinates": [ -149.801271147295154, 61.148252057067594 ] } },
{ "type": "Feature", "properties": { "OBJECTID": 98, "Facility_T": "Ball Field", "Facility_N": "Abbott Loop Community Park Ball Fields", "Owner": "MOA Leased to Little Leag", "Comments": null }, "geometry": { "type": "Point", "coordinates": [ -149.80197331981816, 61.146163387069706 ] } },
{ "type": "Feature", "properties": { "OBJECTID": 99, "Facility_T": "Playground", "Facility_N": "Abbott Loop Community Park", "Owner": "MOA", "Comments": null }, "geometry": { "type": "Point", "coordinates": [ -149.801172044263353, 61.147757913443584 ] } },
{ "type": "Feature", "properties": { "OBJECTID": 100, "Facility_T": "Play Field", "Facility_N": "Emerald Hills Parks", "Owner": "MOA", "Comments": null }, "geometry": { "type": "Point", "coordinates": [ -149.926018655572307, 61.138387683756633 ] } },
{ "type": "Feature", "properties": { "OBJECTID": 101, "Facility_T": "Trail System", "Facility_N": "Emerald Hills Parks", "Owner": "MOA", "Comments": null }, "geometry": { "type": "Point", "coordinates": [ -149.919288396097301, 61.140102391196443 ] } },
{ "type": "Feature", "properties": { "OBJECTID": 103, "Facility_T": "Trail System", "Facility_N": "Emerald Hills Parks", "Owner": "MOA", "Comments": null }, "geometry": { "type": "Point", "coordinates": [ -149.91964248810288, 61.141660427357735 ] } },
{ "type": "Feature", "properties": { "OBJECTID": 104, "Facility_T": "Trail System", "Facility_N": "Emerald Hills Parks", "Owner": "MOA", "Comments": null }, "geometry": { "type": "Point", "coordinates": [ -149.920877266147983, 61.138817504636592 ] } },
{ "type": "Feature", "properties": { "OBJECTID": 105, "Facility_T": "Trail System", "Facility_N": "Emerald Hills Parks", "Owner": "MOA", "Comments": null }, "geometry": { "type": "Point", "coordinates": [ -149.913783458375008, 61.142411006642249 ] } },
{ "type": "Feature", "properties": { "OBJECTID": 106, "Facility_T": "Playground", "Facility_N": null, "Owner": null, "Comments": "Need to confirm this Faciilty" }, "geometry": { "type": "Point", "coordinates": [ -149.885811807021554, 61.229135288401686 ] } },
{ "type": "Feature", "properties": { "OBJECTID": 107, "Facility_T": "Soccer Fields", "Facility_N": null, "Owner": null, "Comments": null }, "geometry": { "type": "Point", "coordinates": [ -149.802773855146256, 61.148274484818636 ] } },
{ "type": "Feature", "properties": { "OBJECTID": 108, "Facility_T": "Trail System", "Facility_N": null, "Owner": null, "Comments": null }, "geometry": { "type": "Point", "coordinates": [ -149.798617418522724, 61.148725611548535 ] } },
{ "type": "Feature", "properties": { "OBJECTID": 109, "Facility_T": "Parking Lot", "Facility_N": null, "Owner": null, "Comments": null }, "geometry": { "type": "Point", "coordinates": [ -149.947937537725892, 61.190125965208175 ] } },
{ "type": "Feature", "properties": { "OBJECTID": 110, "Facility_T": "Parking Lot", "Facility_N": null, "Owner": null, "Comments": null }, "geometry": { "type": "Point", "coordinates": [ -149.94334608050471, 61.190793769002831 ] } },
{ "type": "Feature", "properties": { "OBJECTID": 111, "Facility_T": "Soccer Fields", "Facility_N": null, "Owner": null, "Comments": null }, "geometry": { "type": "Point", "coordinates": [ -149.94858143754351, 61.19079941929558 ] } },
{ "type": "Feature", "properties": { "OBJECTID": 112, "Facility_T": "Soccer Fields", "Facility_N": null, "Owner": null, "Comments": null }, "geometry": { "type": "Point", "coordinates": [ -149.945341678623038, 61.190766093313208 ] } },
{ "type": "Feature", "properties": { "OBJECTID": 113, "Facility_T": "Sledding", "Facility_N": null, "Owner": null, "Comments": null }, "geometry": { "type": "Point", "coordinates": [ -149.947991696883435, 61.190400256315684 ] } },
{ "type": "Feature", "properties": { "OBJECTID": 114, "Facility_T": "Play Field", "Facility_N": null, "Owner": null, "Comments": null }, "geometry": { "type": "Point", "coordinates": [ -149.853392105624295, 61.176668881091011 ] } },
{ "type": "Feature", "properties": { "OBJECTID": 115, "Facility_T": "Play Field", "Facility_N": null, "Owner": null, "Comments": null }, "geometry": { "type": "Point", "coordinates": [ -149.854338011255436, 61.174170594786887 ] } },
{ "type": "Feature", "properties": { "OBJECTID": 116, "Facility_T": "Parking Lot", "Facility_N": null, "Owner": null, "Comments": null }, "geometry": { "type": "Point", "coordinates": [ -149.726386506097583, 61.074130172364775 ] } },
{ "type": "Feature", "properties": { "OBJECTID": 117, "Facility_T": "Parking Lot", "Facility_N": null, "Owner": null, "Comments": null }, "geometry": { "type": "Point", "coordinates": [ -149.875698284380775, 61.219749459045225 ] } },
{ "type": "Feature", "properties": { "OBJECTID": 118, "Facility_T": "Playground", "Facility_N": "Margaret Eagan Sullivan Park", "Owner": "Unknown", "Comments": null }, "geometry": { "type": "Point", "coordinates": [ -149.921762138552651, 61.208508052040109 ] } },
{ "type": "Feature", "properties": { "OBJECTID": 119, "Facility_T": "Playground", "Facility_N": "Wickersham Park", "Owner": "MOA", "Comments": null }, "geometry": { "type": "Point", "coordinates": [ -149.845681641051328, 61.176636861712147 ] } },
{ "type": "Feature", "properties": { "OBJECTID": 120, "Facility_T": "Trailhead", "Facility_N": "Prospect Heights", "Owner": null, "Comments": null }, "geometry": { "type": "Point", "coordinates": [ -149.711650069634572, 61.138575885599842 ] } },
{ "type": "Feature", "properties": { "OBJECTID": 121, "Facility_T": "Trailhead", "Facility_N": null, "Owner": null, "Comments": null }, "geometry": { "type": "Point", "coordinates": [ -149.451942872044839, 61.228300043666728 ] } },
{ "type": "Feature", "properties": { "OBJECTID": 122, "Facility_T": "Trailhead", "Facility_N": "Windy Corner", "Owner": null, "Comments": null }, "geometry": { "type": "Point", "coordinates": [ -149.60434243773301, 60.984843708198191 ] } },
{ "type": "Feature", "properties": { "OBJECTID": 123, "Facility_T": "Trailhead", "Facility_N": null, "Owner": null, "Comments": null }, "geometry": { "type": "Point", "coordinates": [ -149.552532426276599, 61.387794371664491 ] } },
{ "type": "Feature", "properties": { "OBJECTID": 124, "Facility_T": "Trailhead", "Facility_N": null, "Owner": null, "Comments": null }, "geometry": { "type": "Point", "coordinates": [ -149.985284716155235, 61.198216385468214 ] } },
{ "type": "Feature", "properties": { "OBJECTID": 125, "Facility_T": "Trailhead", "Facility_N": "Earthquake Park", "Owner": null, "Comments": null }, "geometry": { "type": "Point", "coordinates": [ -149.977431183454883, 61.196194657014381 ] } },
{ "type": "Feature", "properties": { "OBJECTID": 126, "Facility_T": "Trailhead", "Facility_N": "Abbott Loop Trailhead", "Owner": null, "Comments": null }, "geometry": { "type": "Point", "coordinates": [ -149.803719612740224, 61.148003179865142 ] } },
{ "type": "Feature", "properties": { "OBJECTID": 127, "Facility_T": "Trailhead", "Facility_N": "Cartee Fields", "Owner": null, "Comments": null }, "geometry": { "type": "Point", "coordinates": [ -149.790997020203207, 61.214190320966324 ] } },
{ "type": "Feature", "properties": { "OBJECTID": 128, "Facility_T": "Trailhead", "Facility_N": "Upper Huffman", "Owner": null, "Comments": null }, "geometry": { "type": "Point", "coordinates": [ -149.711114410371124, 61.112082276163726 ] } },
{ "type": "Feature", "properties": { "OBJECTID": 129, "Facility_T": "Trailhead", "Facility_N": "Westchester 2", "Owner": null, "Comments": null }, "geometry": { "type": "Point", "coordinates": [ -149.918594358075012, 61.20747766906252 ] } },
{ "type": "Feature", "properties": { "OBJECTID": 130, "Facility_T": "Trailhead", "Facility_N": "Hilltop", "Owner": null, "Comments": null }, "geometry": { "type": "Point", "coordinates": [ -149.743286740070801, 61.142775172111982 ] } },
{ "type": "Feature", "properties": { "OBJECTID": 131, "Facility_T": "Trailhead", "Facility_N": null, "Owner": null, "Comments": null }, "geometry": { "type": "Point", "coordinates": [ -149.272192041944152, 61.233715731531305 ] } },
{ "type": "Feature", "properties": { "OBJECTID": 132, "Facility_T": "Trailhead", "Facility_N": null, "Owner": null, "Comments": null }, "geometry": { "type": "Point", "coordinates": [ -149.792991578367918, 61.051090833685201 ] } },
{ "type": "Feature", "properties": { "OBJECTID": 133, "Facility_T": "Trailhead", "Facility_N": "Taku Lake", "Owner": null, "Comments": null }, "geometry": { "type": "Point", "coordinates": [ -149.880291106501943, 61.152020409423045 ] } },
{ "type": "Feature", "properties": { "OBJECTID": 134, "Facility_T": "Trailhead", "Facility_N": "Ship Creek Dam", "Owner": null, "Comments": null }, "geometry": { "type": "Point", "coordinates": [ -149.8798521088558, 61.224179042025604 ] } },
{ "type": "Feature", "properties": { "OBJECTID": 135, "Facility_T": "Trailhead", "Facility_N": "Foxtree Park", "Owner": null, "Comments": null }, "geometry": { "type": "Point", "coordinates": [ -149.867148831275131, 61.172077732281146 ] } },
{ "type": "Feature", "properties": { "OBJECTID": 136, "Facility_T": "Trailhead", "Facility_N": "Rainbow Valley", "Owner": null, "Comments": null }, "geometry": { "type": "Point", "coordinates": [ -149.640558025356398, 61.000049642224852 ] } },
{ "type": "Feature", "properties": { "OBJECTID": 137, "Facility_T": "Trailhead", "Facility_N": null, "Owner": null, "Comments": null }, "geometry": { "type": "Point", "coordinates": [ -149.37939228664888, 61.277715502730331 ] } },
{ "type": "Feature", "properties": { "OBJECTID": 138, "Facility_T": "Trailhead", "Facility_N": "Potter\/johnson", "Owner": null, "Comments": null }, "geometry": { "type": "Point", "coordinates": [ -149.792104198735956, 61.048109940448072 ] } },
{ "type": "Feature", "properties": { "OBJECTID": 139, "Facility_T": "Trailhead", "Facility_N": "Point Woronzof", "Owner": null, "Comments": null }, "geometry": { "type": "Point", "coordinates": [ -150.020674599819472, 61.202174018667989 ] } },
{ "type": "Feature", "properties": { "OBJECTID": 140, "Facility_T": "Trailhead", "Facility_N": "Smoke Jumper Trailhead", "Owner": null, "Comments": null }, "geometry": { "type": "Point", "coordinates": [ -149.80069305805938, 61.158838076732991 ] } },
{ "type": "Feature", "properties": { "OBJECTID": 141, "Facility_T": "Trailhead", "Facility_N": null, "Owner": null, "Comments": null }, "geometry": { "type": "Point", "coordinates": [ -149.536063205563551, 61.371652644606876 ] } },
{ "type": "Feature", "properties": { "OBJECTID": 142, "Facility_T": "Trailhead", "Facility_N": "Airport Park", "Owner": null, "Comments": null }, "geometry": { "type": "Point", "coordinates": [ -149.992993188979568, 61.198964614661776 ] } },
{ "type": "Feature", "properties": { "OBJECTID": 143, "Facility_T": "Trailhead", "Facility_N": "Westchester Nature Trail", "Owner": null, "Comments": null }, "geometry": { "type": "Point", "coordinates": [ -149.903954100598384, 61.203629556406817 ] } },
{ "type": "Feature", "properties": { "OBJECTID": 144, "Facility_T": "Trailhead", "Facility_N": null, "Owner": null, "Comments": null }, "geometry": { "type": "Point", "coordinates": [ -149.468101290850484, 61.389229126145352 ] } },
{ "type": "Feature", "properties": { "OBJECTID": 145, "Facility_T": "Trailhead", "Facility_N": "Eastchester Park", "Owner": null, "Comments": null }, "geometry": { "type": "Point", "coordinates": [ -149.842388543210006, 61.199528956874737 ] } },
{ "type": "Feature", "properties": { "OBJECTID": 146, "Facility_T": "Trailhead", "Facility_N": "Mchugh Creek", "Owner": null, "Comments": null }, "geometry": { "type": "Point", "coordinates": [ -149.73239425470635, 61.016559263624245 ] } },
{ "type": "Feature", "properties": { "OBJECTID": 147, "Facility_T": "Trailhead", "Facility_N": "Eklutna Lake", "Owner": null, "Comments": null }, "geometry": { "type": "Point", "coordinates": [ -149.142630594606118, 61.405863934620186 ] } },
{ "type": "Feature", "properties": { "OBJECTID": 148, "Facility_T": "Trailhead", "Facility_N": "Westchester Lagoon", "Owner": null, "Comments": null }, "geometry": { "type": "Point", "coordinates": [ -149.92092510754577, 61.208279847837673 ] } },
{ "type": "Feature", "properties": { "OBJECTID": 149, "Facility_T": "Trailhead", "Facility_N": null, "Owner": null, "Comments": null }, "geometry": { "type": "Point", "coordinates": [ -149.369818218961484, 61.449870127785246 ] } },
{ "type": "Feature", "properties": { "OBJECTID": 150, "Facility_T": "Trailhead", "Facility_N": null, "Owner": null, "Comments": null }, "geometry": { "type": "Point", "coordinates": [ -149.305359690051773, 61.250035381884764 ] } },
{ "type": "Feature", "properties": { "OBJECTID": 151, "Facility_T": "Trailhead", "Facility_N": "North Coastal Trail", "Owner": null, "Comments": null }, "geometry": { "type": "Point", "coordinates": [ -149.897484950287208, 61.220546513531289 ] } },
{ "type": "Feature", "properties": { "OBJECTID": 152, "Facility_T": "Trailhead", "Facility_N": null, "Owner": null, "Comments": null }, "geometry": { "type": "Point", "coordinates": [ -149.539304771290205, 61.296843681491204 ] } },
{ "type": "Feature", "properties": { "OBJECTID": 153, "Facility_T": "Trailhead", "Facility_N": null, "Owner": null, "Comments": null }, "geometry": { "type": "Point", "coordinates": [ -149.495765423563398, 61.002129545927446 ] } },
{ "type": "Feature", "properties": { "OBJECTID": 154, "Facility_T": "Trailhead", "Facility_N": "Anch Football Stad", "Owner": null, "Comments": null }, "geometry": { "type": "Point", "coordinates": [ -149.878430872115871, 61.204376081955203 ] } },
{ "type": "Feature", "properties": { "OBJECTID": 155, "Facility_T": "Trailhead", "Facility_N": "Lynwood Drive", "Owner": null, "Comments": null }, "geometry": { "type": "Point", "coordinates": [ -149.87695240402158, 61.164054156905628 ] } },
{ "type": "Feature", "properties": { "OBJECTID": 156, "Facility_T": "Trailhead", "Facility_N": "Taku\/campbell", "Owner": null, "Comments": null }, "geometry": { "type": "Point", "coordinates": [ -149.885128039362229, 61.146976308315949 ] } },
{ "type": "Feature", "properties": { "OBJECTID": 157, "Facility_T": "Trailhead", "Facility_N": "Centennial Park", "Owner": null, "Comments": null }, "geometry": { "type": "Point", "coordinates": [ -149.721969309271998, 61.228703199028125 ] } },
{ "type": "Feature", "properties": { "OBJECTID": 158, "Facility_T": "Trailhead", "Facility_N": "Goose Lake", "Owner": null, "Comments": null }, "geometry": { "type": "Point", "coordinates": [ -149.821461998411309, 61.196911706464824 ] } },
{ "type": "Feature", "properties": { "OBJECTID": 159, "Facility_T": "Trailhead", "Facility_N": "Service High", "Owner": null, "Comments": null }, "geometry": { "type": "Point", "coordinates": [ -149.780218004772962, 61.139959599801372 ] } },
{ "type": "Feature", "properties": { "OBJECTID": 160, "Facility_T": "Trailhead", "Facility_N": "Davenport Fields", "Owner": null, "Comments": null }, "geometry": { "type": "Point", "coordinates": [ -149.837815232531625, 61.200105127278221 ] } },
{ "type": "Feature", "properties": { "OBJECTID": 161, "Facility_T": "Trailhead", "Facility_N": null, "Owner": null, "Comments": null }, "geometry": { "type": "Point", "coordinates": [ -149.427147253078147, 61.427035291731883 ] } },
{ "type": "Feature", "properties": { "OBJECTID": 162, "Facility_T": "Trailhead", "Facility_N": null, "Owner": null, "Comments": null }, "geometry": { "type": "Point", "coordinates": [ -149.564678986325504, 61.401210219563097 ] } },
{ "type": "Feature", "properties": { "OBJECTID": 163, "Facility_T": "Trailhead", "Facility_N": "Kincaid Chalet", "Owner": null, "Comments": null }, "geometry": { "type": "Point", "coordinates": [ -150.054474568351196, 61.154291094846691 ] } },
{ "type": "Feature", "properties": { "OBJECTID": 164, "Facility_T": "Trailhead", "Facility_N": null, "Owner": null, "Comments": null }, "geometry": { "type": "Point", "coordinates": [ -149.571660299809992, 61.307168846316706 ] } },
{ "type": "Feature", "properties": { "OBJECTID": 165, "Facility_T": "Trailhead", "Facility_N": "Glen Alps", "Owner": null, "Comments": null }, "geometry": { "type": "Point", "coordinates": [ -149.684025132595792, 61.102876186167506 ] } },
{ "type": "Feature", "properties": { "OBJECTID": 166, "Facility_T": "Trailhead", "Facility_N": null, "Owner": null, "Comments": null }, "geometry": { "type": "Point", "coordinates": [ -149.413760113763885, 61.428548632116161 ] } },
{ "type": "Feature", "properties": { "OBJECTID": 167, "Facility_T": "Trailhead", "Facility_N": "Upper Omalley", "Owner": null, "Comments": null }, "geometry": { "type": "Point", "coordinates": [ -149.714543159687935, 61.119389858040549 ] } },
{ "type": "Feature", "properties": { "OBJECTID": 168, "Facility_T": "Trailhead", "Facility_N": "University Lake Ambassador", "Owner": null, "Comments": null }, "geometry": { "type": "Point", "coordinates": [ -149.802585743495655, 61.1846098964673 ] } },
{ "type": "Feature", "properties": { "OBJECTID": 169, "Facility_T": "Trailhead", "Facility_N": "Ruth Arcand Park", "Owner": null, "Comments": null }, "geometry": { "type": "Point", "coordinates": [ -149.804089585368899, 61.128268342814515 ] } },
{ "type": "Feature", "properties": { "OBJECTID": 170, "Facility_T": "Trailhead", "Facility_N": "Stork Park", "Owner": null, "Comments": null }, "geometry": { "type": "Point", "coordinates": [ -149.750871598339927, 61.088069941769774 ] } },
{ "type": "Feature", "properties": { "OBJECTID": 171, "Facility_T": "Trailhead", "Facility_N": "Windsong Park Northview", "Owner": null, "Comments": null }, "geometry": { "type": "Point", "coordinates": [ -149.726566534515484, 61.207207015360865 ] } },
{ "type": "Feature", "properties": { "OBJECTID": 172, "Facility_T": "Trailhead", "Facility_N": "Northwood", "Owner": null, "Comments": null }, "geometry": { "type": "Point", "coordinates": [ -149.922045284701596, 61.140951848784177 ] } },
{ "type": "Feature", "properties": { "OBJECTID": 173, "Facility_T": "Trailhead", "Facility_N": "Fairbanks and 56th", "Owner": null, "Comments": null }, "geometry": { "type": "Point", "coordinates": [ -149.873809289963106, 61.170048551872831 ] } },
{ "type": "Feature", "properties": { "OBJECTID": 174, "Facility_T": "Trailhead", "Facility_N": "Greenhill Way", "Owner": null, "Comments": null }, "geometry": { "type": "Point", "coordinates": [ -149.91637152026334, 61.142073866439937 ] } },
{ "type": "Feature", "properties": { "OBJECTID": 175, "Facility_T": "Trailhead", "Facility_N": "Alaska Railroad", "Owner": null, "Comments": null }, "geometry": { "type": "Point", "coordinates": [ -149.888825287310198, 61.223294055560565 ] } },
{ "type": "Feature", "properties": { "OBJECTID": 176, "Facility_T": "Trailhead", "Facility_N": "Baxter Elementary", "Owner": null, "Comments": null }, "geometry": { "type": "Point", "coordinates": [ -149.76026078096649, 61.192886534688007 ] } },
{ "type": "Feature", "properties": { "OBJECTID": 177, "Facility_T": "Trailhead", "Facility_N": "Sitka Park", "Owner": null, "Comments": null }, "geometry": { "type": "Point", "coordinates": [ -149.846874725803787, 61.206278205113804 ] } },
{ "type": "Feature", "properties": { "OBJECTID": 178, "Facility_T": "Trailhead", "Facility_N": "Davidson Park", "Owner": null, "Comments": null }, "geometry": { "type": "Point", "coordinates": [ -149.82681378670307, 61.083897598641997 ] } },
{ "type": "Feature", "properties": { "OBJECTID": 179, "Facility_T": "Trailhead", "Facility_N": "Potter's Marsh Boardwalk", "Owner": null, "Comments": null }, "geometry": { "type": "Point", "coordinates": [ -149.827207981628732, 61.077865182020965 ] } },
{ "type": "Feature", "properties": { "OBJECTID": 180, "Facility_T": "Trailhead", "Facility_N": "Falls Creek", "Owner": null, "Comments": null }, "geometry": { "type": "Point", "coordinates": [ -149.57930622717663, 60.983840893714707 ] } },
{ "type": "Feature", "properties": { "OBJECTID": 181, "Facility_T": "Trailhead", "Facility_N": "Wingsong Park Moss", "Owner": null, "Comments": null }, "geometry": { "type": "Point", "coordinates": [ -149.722529506630451, 61.207301016673355 ] } },
{ "type": "Feature", "properties": { "OBJECTID": 182, "Facility_T": "Trailhead", "Facility_N": "Windsong Park", "Owner": null, "Comments": null }, "geometry": { "type": "Point", "coordinates": [ -149.725485854412938, 61.206003896044592 ] } },
{ "type": "Feature", "properties": { "OBJECTID": 183, "Facility_T": "Trailhead", "Facility_N": "Kiwanis Fish Creek Park", "Owner": null, "Comments": null }, "geometry": { "type": "Point", "coordinates": [ -149.9352116486954, 61.186544010417329 ] } },
{ "type": "Feature", "properties": { "OBJECTID": 184, "Facility_T": "Trailhead", "Facility_N": "Woodside Park", "Owner": null, "Comments": null }, "geometry": { "type": "Point", "coordinates": [ -149.866405001419537, 61.201735006391488 ] } },
{ "type": "Feature", "properties": { "OBJECTID": 185, "Facility_T": "Trailhead", "Facility_N": "Potter Station House", "Owner": null, "Comments": null }, "geometry": { "type": "Point", "coordinates": [ -149.795919476249765, 61.051135741557204 ] } },
{ "type": "Feature", "properties": { "OBJECTID": 186, "Facility_T": "Trailhead", "Facility_N": "Little Hill", "Owner": null, "Comments": null }, "geometry": { "type": "Point", "coordinates": [ -149.750514955446391, 61.158477022300438 ] } },
{ "type": "Feature", "properties": { "OBJECTID": 187, "Facility_T": "Trailhead", "Facility_N": "Crow Creek Pass", "Owner": null, "Comments": null }, "geometry": { "type": "Point", "coordinates": [ -149.114656394173039, 61.029018589974193 ] } },
{ "type": "Feature", "properties": { "OBJECTID": 188, "Facility_T": "Trailhead", "Facility_N": "Taku Elementary", "Owner": null, "Comments": null }, "geometry": { "type": "Point", "coordinates": [ -149.870576327456973, 61.155707729805236 ] } },
{ "type": "Feature", "properties": { "OBJECTID": 189, "Facility_T": "Trailhead", "Facility_N": "Russian Jack", "Owner": null, "Comments": null }, "geometry": { "type": "Point", "coordinates": [ -149.787870903880645, 61.206267980561122 ] } },
{ "type": "Feature", "properties": { "OBJECTID": 190, "Facility_T": "Trailhead", "Facility_N": "Forest Park Cul de sac", "Owner": null, "Comments": null }, "geometry": { "type": "Point", "coordinates": [ -149.925859240648521, 61.206130196693287 ] } },
{ "type": "Feature", "properties": { "OBJECTID": 191, "Facility_T": "Trailhead", "Facility_N": "Bicentennial Patterson", "Owner": null, "Comments": null }, "geometry": { "type": "Point", "coordinates": [ -149.750841212699299, 61.180221006426926 ] } },
{ "type": "Feature", "properties": { "OBJECTID": 192, "Facility_T": "Trailhead", "Facility_N": "Campbell AIrstrip (Mile 1.1)", "Owner": null, "Comments": null }, "geometry": { "type": "Point", "coordinates": [ -149.764863063996955, 61.166361562390271 ] } },
{ "type": "Feature", "properties": { "OBJECTID": 193, "Facility_T": "Trailhead", "Facility_N": "Carr-Gottstein", "Owner": null, "Comments": null }, "geometry": { "type": "Point", "coordinates": [ -149.937644769008017, 61.117373208443418 ] } },
{ "type": "Feature", "properties": { "OBJECTID": 194, "Facility_T": "Trailhead", "Facility_N": "Public Works \/ Bus Barn", "Owner": null, "Comments": null }, "geometry": { "type": "Point", "coordinates": [ -149.813187022781165, 61.176747419700696 ] } },
{ "type": "Feature", "properties": { "OBJECTID": 195, "Facility_T": "Trailhead", "Facility_N": "Tikishla Park", "Owner": null, "Comments": null }, "geometry": { "type": "Point", "coordinates": [ -149.825531499692602, 61.202348829756339 ] } },
{ "type": "Feature", "properties": { "OBJECTID": 196, "Facility_T": "Trailhead", "Facility_N": "Little Cambell Lake", "Owner": null, "Comments": null }, "geometry": { "type": "Point", "coordinates": [ -150.023518956776059, 61.16342095038987 ] } },
{ "type": "Feature", "properties": { "OBJECTID": 197, "Facility_T": "Trailhead", "Facility_N": "Valley of the Moon", "Owner": null, "Comments": null }, "geometry": { "type": "Point", "coordinates": [ -149.893691084051, 61.204992868541382 ] } },
{ "type": "Feature", "properties": { "OBJECTID": 198, "Facility_T": "Trailhead", "Facility_N": "Sand Lake Elementary", "Owner": null, "Comments": null }, "geometry": { "type": "Point", "coordinates": [ -149.952601200550959, 61.15305679553056 ] } },
{ "type": "Feature", "properties": { "OBJECTID": 199, "Facility_T": "Trailhead", "Facility_N": "Piper and 48th", "Owner": null, "Comments": null }, "geometry": { "type": "Point", "coordinates": [ -149.823423650490724, 61.177413447444891 ] } },
{ "type": "Feature", "properties": { "OBJECTID": 200, "Facility_T": "Trailhead", "Facility_N": "Faith Lutheran Church", "Owner": null, "Comments": null }, "geometry": { "type": "Point", "coordinates": [ -149.89268557128284, 61.14736351119025 ] } },
{ "type": "Feature", "properties": { "OBJECTID": 201, "Facility_T": "Trailhead", "Facility_N": "Dimond Park Estates", "Owner": null, "Comments": null }, "geometry": { "type": "Point", "coordinates": [ -149.905176815141772, 61.141398595392893 ] } },
{ "type": "Feature", "properties": { "OBJECTID": 202, "Facility_T": "Trailhead", "Facility_N": "C St Gardens", "Owner": null, "Comments": null }, "geometry": { "type": "Point", "coordinates": [ -149.888304321256101, 61.203195859798718 ] } },
{ "type": "Feature", "properties": { "OBJECTID": 203, "Facility_T": "Trailhead", "Facility_N": "Juneau", "Owner": null, "Comments": null }, "geometry": { "type": "Point", "coordinates": [ -149.864137261086199, 61.199134488722102 ] } },
{ "type": "Feature", "properties": { "OBJECTID": 204, "Facility_T": "Trailhead", "Facility_N": "Bicentennial Tikishala", "Owner": null, "Comments": null }, "geometry": { "type": "Point", "coordinates": [ -149.732603547259686, 61.180777081651328 ] } },
{ "type": "Feature", "properties": { "OBJECTID": 205, "Facility_T": "Trailhead", "Facility_N": "Mayflower Trailer Park", "Owner": null, "Comments": null }, "geometry": { "type": "Point", "coordinates": [ -149.778913265318437, 61.214011751552796 ] } },
{ "type": "Feature", "properties": { "OBJECTID": 206, "Facility_T": "Trailhead", "Facility_N": "GreenHill Way", "Owner": null, "Comments": null }, "geometry": { "type": "Point", "coordinates": [ -149.916060563010916, 61.142893162148802 ] } },
{ "type": "Feature", "properties": { "OBJECTID": 207, "Facility_T": "Trailhead", "Facility_N": "Bird to Gird", "Owner": null, "Comments": null }, "geometry": { "type": "Point", "coordinates": [ -149.344005684237516, 60.929901151544058 ] } },
{ "type": "Feature", "properties": { "OBJECTID": 208, "Facility_T": "Trailhead", "Facility_N": "World Cup Start", "Owner": null, "Comments": null }, "geometry": { "type": "Point", "coordinates": [ -150.036260665700581, 61.156823869595321 ] } },
{ "type": "Feature", "properties": { "OBJECTID": 209, "Facility_T": "Trailhead", "Facility_N": "Chuck Albrecht Fields", "Owner": null, "Comments": null }, "geometry": { "type": "Point", "coordinates": [ -149.805950937478286, 61.177126091923647 ] } },
{ "type": "Feature", "properties": { "OBJECTID": 210, "Facility_T": "Trailhead", "Facility_N": "ASDRA Start", "Owner": null, "Comments": null }, "geometry": { "type": "Point", "coordinates": [ -149.816286202931167, 61.180244054609751 ] } },
{ "type": "Feature", "properties": { "OBJECTID": 211, "Facility_T": "Trailhead", "Facility_N": "Tank trails north", "Owner": null, "Comments": null }, "geometry": { "type": "Point", "coordinates": [ -149.711120344739925, 61.16593619257155 ] } },
{ "type": "Feature", "properties": { "OBJECTID": 212, "Facility_T": "Trailhead", "Facility_N": "Oceanview Bluff Park", "Owner": null, "Comments": null }, "geometry": { "type": "Point", "coordinates": [ -149.861320489287152, 61.099315892244178 ] } },
{ "type": "Feature", "properties": { "OBJECTID": 213, "Facility_T": "Trailhead", "Facility_N": "State Parks Trailhead", "Owner": null, "Comments": null }, "geometry": { "type": "Point", "coordinates": [ -149.714188633803019, 61.151592081579075 ] } },
{ "type": "Feature", "properties": { "OBJECTID": 214, "Facility_T": "Trailhead", "Facility_N": "Campbell Creek Park", "Owner": null, "Comments": null }, "geometry": { "type": "Point", "coordinates": [ -149.837268499813547, 61.177434392388363 ] } },
{ "type": "Feature", "properties": { "OBJECTID": 215, "Facility_T": "Trailhead", "Facility_N": "Raspberry Rd", "Owner": null, "Comments": null }, "geometry": { "type": "Point", "coordinates": [ -150.018458412826476, 61.154538243398562 ] } },
{ "type": "Feature", "properties": { "OBJECTID": 216, "Facility_T": "Trailhead", "Facility_N": "John's Park", "Owner": null, "Comments": null }, "geometry": { "type": "Point", "coordinates": [ -149.891970576537005, 61.108527205070423 ] } },
{ "type": "Feature", "properties": { "OBJECTID": 217, "Facility_T": "Trailhead", "Facility_N": "Margaret Sullivan Park", "Owner": null, "Comments": null }, "geometry": { "type": "Point", "coordinates": [ -149.905321429961333, 61.204899655875174 ] } },
{ "type": "Feature", "properties": { "OBJECTID": 218, "Facility_T": "Trailhead", "Facility_N": "Alyeska Hotel", "Owner": null, "Comments": null }, "geometry": { "type": "Point", "coordinates": [ -149.09991926200226, 60.972092352986621 ] } },
{ "type": "Feature", "properties": { "OBJECTID": 219, "Facility_T": "Trailhead", "Facility_N": "Chirkof and Shelikof", "Owner": null, "Comments": null }, "geometry": { "type": "Point", "coordinates": [ -149.852899551049802, 61.178866378860157 ] } },
{ "type": "Feature", "properties": { "OBJECTID": 220, "Facility_T": "Trailhead", "Facility_N": "Woodland Park", "Owner": null, "Comments": null }, "geometry": { "type": "Point", "coordinates": [ -149.929033360871784, 61.188209746814458 ] } },
{ "type": "Feature", "properties": { "OBJECTID": 221, "Facility_T": "Trailhead", "Facility_N": "Castle Heights Park", "Owner": null, "Comments": null }, "geometry": { "type": "Point", "coordinates": [ -149.7905322674101, 61.184238848561186 ] } },
{ "type": "Feature", "properties": { "OBJECTID": 222, "Facility_T": "Trailhead", "Facility_N": "Delong Lake", "Owner": null, "Comments": null }, "geometry": { "type": "Point", "coordinates": [ -149.953104873030441, 61.163487039876287 ] } },
{ "type": "Feature", "properties": { "OBJECTID": 223, "Facility_T": "Trailhead", "Facility_N": "Boniface and Debarr", "Owner": null, "Comments": null }, "geometry": { "type": "Point", "coordinates": [ -149.77876308349002, 61.209462047931893 ] } },
{ "type": "Feature", "properties": { "OBJECTID": 224, "Facility_T": "Trailhead", "Facility_N": "Ruth Arcand Park North", "Owner": null, "Comments": null }, "geometry": { "type": "Point", "coordinates": [ -149.804670841113364, 61.132478440024165 ] } },
{ "type": "Feature", "properties": { "OBJECTID": 225, "Facility_T": "Trailhead", "Facility_N": "Gasline at 17th", "Owner": null, "Comments": null }, "geometry": { "type": "Point", "coordinates": [ -149.718465862425035, 61.205744870460229 ] } },
{ "type": "Feature", "properties": { "OBJECTID": 226, "Facility_T": "Trailhead", "Facility_N": "Pena Sports Complex", "Owner": null, "Comments": null }, "geometry": { "type": "Point", "coordinates": [ -149.729090954835073, 61.225699573470976 ] } },
{ "type": "Feature", "properties": { "OBJECTID": 227, "Facility_T": "Trailhead", "Facility_N": "Jodphur Rd Motocross", "Owner": null, "Comments": null }, "geometry": { "type": "Point", "coordinates": [ -150.018466742183762, 61.144064074824136 ] } },
{ "type": "Feature", "properties": { "OBJECTID": 228, "Facility_T": "Trailhead", "Facility_N": "Equestrian Center", "Owner": null, "Comments": null }, "geometry": { "type": "Point", "coordinates": [ -149.809446014609563, 61.136063594038994 ] } },
{ "type": "Feature", "properties": { "OBJECTID": 229, "Facility_T": "Trailhead", "Facility_N": "University Lake Dr", "Owner": null, "Comments": null }, "geometry": { "type": "Point", "coordinates": [ -149.804778051425217, 61.18717410209829 ] } },
{ "type": "Feature", "properties": { "OBJECTID": 230, "Facility_T": "Trailhead", "Facility_N": "Campbell Creek Science Center", "Owner": null, "Comments": null }, "geometry": { "type": "Point", "coordinates": [ -149.777679250741642, 61.165024210345834 ] } },
{ "type": "Feature", "properties": { "OBJECTID": 231, "Facility_T": "Trailhead", "Facility_N": "Bartlett HS Trail System", "Owner": null, "Comments": null }, "geometry": { "type": "Point", "coordinates": [ -149.734413037313232, 61.233521224126513 ] } },
{ "type": "Feature", "properties": { "OBJECTID": 232, "Facility_T": "Trailhead", "Facility_N": "Arnold Muldoon Park", "Owner": null, "Comments": null }, "geometry": { "type": "Point", "coordinates": [ -149.738775413215905, 61.195064394527087 ] } },
{ "type": "Feature", "properties": { "OBJECTID": 233, "Facility_T": "Trailhead", "Facility_N": "Upper Tunnel", "Owner": null, "Comments": null }, "geometry": { "type": "Point", "coordinates": [ -150.034224705942762, 61.15459975153103 ] } },
{ "type": "Feature", "properties": { "OBJECTID": 234, "Facility_T": "Trailhead", "Facility_N": "John's Park Bree", "Owner": null, "Comments": null }, "geometry": { "type": "Point", "coordinates": [ -149.881616366511082, 61.105503577273645 ] } },
{ "type": "Feature", "properties": { "OBJECTID": 235, "Facility_T": "Trailhead", "Facility_N": "Baxter Bog London", "Owner": null, "Comments": null }, "geometry": { "type": "Point", "coordinates": [ -149.757883717206283, 61.182933525873487 ] } },
{ "type": "Feature", "properties": { "OBJECTID": 236, "Facility_T": "Trailhead", "Facility_N": "Russian Jack Picnic Area", "Owner": null, "Comments": null }, "geometry": { "type": "Point", "coordinates": [ -149.778754323747194, 61.206818427350022 ] } },
{ "type": "Feature", "properties": { "OBJECTID": 237, "Facility_T": "Trailhead", "Facility_N": "Eagle St", "Owner": null, "Comments": null }, "geometry": { "type": "Point", "coordinates": [ -149.874777573697116, 61.201003026673497 ] } },
{ "type": "Feature", "properties": { "OBJECTID": 238, "Facility_T": "Trailhead", "Facility_N": "Elderberry Park", "Owner": null, "Comments": null }, "geometry": { "type": "Point", "coordinates": [ -149.906917317495981, 61.217628057403573 ] } },
{ "type": "Feature", "properties": { "OBJECTID": 239, "Facility_T": "Trailhead", "Facility_N": "Bicentennial Klutina", "Owner": null, "Comments": null }, "geometry": { "type": "Point", "coordinates": [ -149.721121822093579, 61.18045752436597 ] } },
{ "type": "Feature", "properties": { "OBJECTID": 240, "Facility_T": "Trailhead", "Facility_N": "Javier dela Vega", "Owner": null, "Comments": null }, "geometry": { "type": "Point", "coordinates": [ -149.92048765482059, 61.169762269429583 ] } },
{ "type": "Feature", "properties": { "OBJECTID": 241, "Facility_T": "Trailhead", "Facility_N": "Russian Jack E 20th", "Owner": null, "Comments": null }, "geometry": { "type": "Point", "coordinates": [ -149.78318886380714, 61.202653786734857 ] } },
{ "type": "Feature", "properties": { "OBJECTID": 242, "Facility_T": "Trailhead", "Facility_N": "North Bivouac", "Owner": null, "Comments": null }, "geometry": { "type": "Point", "coordinates": [ -149.73781138220474, 61.154146628624552 ] } },
{ "type": "Feature", "properties": { "OBJECTID": 243, "Facility_T": "Trailhead", "Facility_N": "Lower Stadium", "Owner": null, "Comments": null }, "geometry": { "type": "Point", "coordinates": [ -150.049737026243434, 61.155215167756253 ] } },
{ "type": "Feature", "properties": { "OBJECTID": 244, "Facility_T": "Trailhead", "Facility_N": "Centennial Park", "Owner": null, "Comments": null }, "geometry": { "type": "Point", "coordinates": [ -149.725017136956268, 61.224243262275351 ] } },
{ "type": "Feature", "properties": { "OBJECTID": 245, "Facility_T": "Trailhead", "Facility_N": "Nunaka Valley School Park Spur", "Owner": null, "Comments": null }, "geometry": { "type": "Point", "coordinates": [ -149.778864142100019, 61.202840020858105 ] } },
{ "type": "Feature", "properties": { "OBJECTID": 246, "Facility_T": "Trailhead", "Facility_N": "Hillside", "Owner": null, "Comments": null }, "geometry": { "type": "Point", "coordinates": [ -149.753299477269394, 61.138110821528613 ] } },
{ "type": "Feature", "properties": { "OBJECTID": 247, "Facility_T": "Trailhead", "Facility_N": "Arnold Muldoon Park Creekside", "Owner": null, "Comments": null }, "geometry": { "type": "Point", "coordinates": [ -149.740889323502955, 61.191726907242639 ] } },
{ "type": "Feature", "properties": { "OBJECTID": 248, "Facility_T": "Trailhead", "Facility_N": "Kincaid and Jodhpur", "Owner": null, "Comments": null }, "geometry": { "type": "Point", "coordinates": [ -150.011889444543982, 61.151902603403755 ] } },
{ "type": "Feature", "properties": { "OBJECTID": 249, "Facility_T": "Trailhead", "Facility_N": "Russian Jack Reka", "Owner": null, "Comments": null }, "geometry": { "type": "Point", "coordinates": [ -149.793373673808702, 61.202691656940743 ] } },
{ "type": "Feature", "properties": { "OBJECTID": 250, "Facility_T": "Trailhead", "Facility_N": "Rakof and Shelikof", "Owner": null, "Comments": null }, "geometry": { "type": "Point", "coordinates": [ -149.855381203895064, 61.175900807333569 ] } },
{ "type": "Feature", "properties": { "OBJECTID": 251, "Facility_T": "Trailhead", "Facility_N": "South Bivouac", "Owner": null, "Comments": null }, "geometry": { "type": "Point", "coordinates": [ -149.737620293096285, 61.153145842801536 ] } },
{ "type": "Feature", "properties": { "OBJECTID": 252, "Facility_T": "Trailhead", "Facility_N": "Lynn Ary Park", "Owner": null, "Comments": null }, "geometry": { "type": "Point", "coordinates": [ -149.94723351700398, 61.201763342040991 ] } },
{ "type": "Feature", "properties": { "OBJECTID": 253, "Facility_T": "Trailhead", "Facility_N": "Davis St Park", "Owner": null, "Comments": null }, "geometry": { "type": "Point", "coordinates": [ -149.788859766344359, 61.22662339900215 ] } },
{ "type": "Feature", "properties": { "OBJECTID": 254, "Facility_T": "Trailhead", "Facility_N": "Campfire Girls Daycamp", "Owner": null, "Comments": null }, "geometry": { "type": "Point", "coordinates": [ -149.784289103473071, 61.210038510862489 ] } },
{ "type": "Feature", "properties": { "OBJECTID": 255, "Facility_T": "Trailhead", "Facility_N": "Viking", "Owner": null, "Comments": null }, "geometry": { "type": "Point", "coordinates": [ -149.851781405212392, 61.224408022464914 ] } },
{ "type": "Feature", "properties": { "OBJECTID": 256, "Facility_T": "Trailhead", "Facility_N": "Bird Ridge", "Owner": null, "Comments": null }, "geometry": { "type": "Point", "coordinates": [ -149.479739303243235, 60.97899592311483 ] } },
{ "type": "Feature", "properties": { "OBJECTID": 257, "Facility_T": "Trailhead", "Facility_N": "Lions Park Camp Off Leash Dog", "Owner": null, "Comments": null }, "geometry": { "type": "Point", "coordinates": [ -149.778880922632652, 61.21602733778731 ] } },
{ "type": "Feature", "properties": { "OBJECTID": 258, "Facility_T": "Trailhead", "Facility_N": "Gird to Bird", "Owner": null, "Comments": null }, "geometry": { "type": "Point", "coordinates": [ -149.177778839164546, 60.945438153577449 ] } },
{ "type": "Feature", "properties": { "OBJECTID": 259, "Facility_T": "Trailhead", "Facility_N": "Tyson Elementary", "Owner": null, "Comments": null }, "geometry": { "type": "Point", "coordinates": [ -149.828957710099331, 61.226094503565612 ] } },
{ "type": "Feature", "properties": { "OBJECTID": 260, "Facility_T": "Trailhead", "Facility_N": "Dimond Bike Path", "Owner": null, "Comments": null }, "geometry": { "type": "Point", "coordinates": [ -149.952458294358991, 61.13775050919012 ] } },
{ "type": "Feature", "properties": { "OBJECTID": 261, "Facility_T": "Trailhead", "Facility_N": "Gateway Bridge", "Owner": null, "Comments": null }, "geometry": { "type": "Point", "coordinates": [ -150.024401544910802, 61.15260286973313 ] } },
{ "type": "Feature", "properties": { "OBJECTID": 262, "Facility_T": "Trailhead", "Facility_N": "Bird Creek", "Owner": null, "Comments": null }, "geometry": { "type": "Point", "coordinates": [ -149.460657411313292, 60.973492770177614 ] } },
{ "type": "Feature", "properties": { "OBJECTID": 263, "Facility_T": "Trailhead", "Facility_N": "Conner's Bog", "Owner": null, "Comments": null }, "geometry": { "type": "Point", "coordinates": [ -149.937804435619711, 61.170626656348773 ] } },
{ "type": "Feature", "properties": { "OBJECTID": 264, "Facility_T": "Trailhead", "Facility_N": "Comfort Inn", "Owner": null, "Comments": null }, "geometry": { "type": "Point", "coordinates": [ -149.879717649286619, 61.223138716483014 ] } },
{ "type": "Feature", "properties": { "OBJECTID": 265, "Facility_T": "Trailhead", "Facility_N": "Abbott o Rabbit Fields", "Owner": null, "Comments": null }, "geometry": { "type": "Point", "coordinates": [ -149.830307246396615, 61.123575694755026 ] } },
{ "type": "Feature", "properties": { "OBJECTID": 266, "Facility_T": "Trailhead", "Facility_N": "Victor Rd", "Owner": null, "Comments": null }, "geometry": { "type": "Point", "coordinates": [ -149.922027277943926, 61.138103761389488 ] } },
{ "type": "Feature", "properties": { "OBJECTID": 267, "Facility_T": "Trailhead", "Facility_N": "Folker", "Owner": null, "Comments": null }, "geometry": { "type": "Point", "coordinates": [ -149.830860642459584, 61.178915497944175 ] } },
{ "type": "Feature", "properties": { "OBJECTID": 268, "Facility_T": "Trailhead", "Facility_N": "Jodphur Rd", "Owner": null, "Comments": null }, "geometry": { "type": "Point", "coordinates": [ -150.015263646637635, 61.146041231803601 ] } },
{ "type": "Feature", "properties": { "OBJECTID": 269, "Facility_T": "Trailhead", "Facility_N": "David Green Memorial Park", "Owner": null, "Comments": null }, "geometry": { "type": "Point", "coordinates": [ -149.848902069603781, 61.187859103168456 ] } },
{ "type": "Feature", "properties": { "OBJECTID": 270, "Facility_T": "Trailhead", "Facility_N": "Cheney Lake Park", "Owner": null, "Comments": null }, "geometry": { "type": "Point", "coordinates": [ -149.763055192982932, 61.200192245120355 ] } }
]
}
